[
    {
        "id": 1,
        "name": "آذربایجان شرقی",
        "cities": [
            {
                "name": "اسکو",
                "id": 1,
                "latitude": "37.9161035",
                "longitude": "46.1244787",
                "english_name": "Osku",
                "provinceId": 1
            },
            {
                "name": "اهر",
                "id": 2,
                "latitude": "38.4774934",
                "longitude": "47.0662215",
                "english_name": "Ahar",
                "provinceId": 1
            },
            {
                "name": "ایلخچی",
                "id": 3,
                "latitude": "37.9389278",
                "longitude": "45.9800159",
                "english_name": "Ilkhchi",
                "provinceId": 1
            },
            {
                "name": "آبش احمد",
                "id": 4,
                "latitude": "39.122217199999994",
                "longitude": "47.394406939671214",
                "english_name": "Abeshahmad",
                "provinceId": 1
            },
            {
                "name": "آذرشهر",
                "id": 5,
                "latitude": "35.6993696",
                "longitude": "51.3682208",
                "english_name": "Azarshahr",
                "provinceId": 1
            },
            {
                "name": "آقکند",
                "id": 6,
                "latitude": "37.2575571",
                "longitude": "48.0648621",
                "english_name": "Aq kand",
                "provinceId": 1
            },
            {
                "name": "باسمنج",
                "id": 7,
                "latitude": "37.9955619",
                "longitude": "46.4749113",
                "english_name": "Basmenj",
                "provinceId": 1
            },
            {
                "name": "بخشایش",
                "id": 8,
                "latitude": "38.131648",
                "longitude": "46.9471214",
                "english_name": "Bakhshayesh",
                "provinceId": 1
            },
            {
                "name": "بستان آباد",
                "id": 9,
                "latitude": "34.8878027",
                "longitude": "46.0803822",
                "english_name": "Bostan Abad",
                "provinceId": 1
            },
            {
                "name": "بناب",
                "id": 10,
                "latitude": "38.428347",
                "longitude": "45.9086682",
                "english_name": "Bonab-e-Jadid",
                "provinceId": 1
            },
            {
                "name": "بناب جدید",
                "id": 11,
                "latitude": "38.428347",
                "longitude": "45.9086682",
                "english_name": "Bonab-e-Jadid",
                "provinceId": 1
            },
            {
                "name": "تبریز",
                "id": 12,
                "latitude": "38.0738612",
                "longitude": "46.2978789",
                "english_name": "Tabriz",
                "provinceId": 1
            },
            {
                "name": "ترک",
                "id": 13,
                "latitude": "43.4826692",
                "longitude": "44.1363776",
                "english_name": "Terek",
                "provinceId": 1
            },
            {
                "name": "ترکمانچای",
                "id": 14,
                "latitude": "37.5816929",
                "longitude": "47.3911101",
                "english_name": "Torkamanchay",
                "provinceId": 1
            },
            {
                "name": "تسوج",
                "id": 15,
                "latitude": "38.3168836",
                "longitude": "45.3590459",
                "english_name": "Tasuj",
                "provinceId": 1
            },
            {
                "name": "تیکمه داش",
                "id": 16,
                "latitude": "37.7257203",
                "longitude": "46.9375589",
                "english_name": "Tikmedash",
                "provinceId": 1
            },
            {
                "name": "جلفا",
                "id": 17,
                "latitude": "38.9376054",
                "longitude": "45.6252101",
                "english_name": "Jolfa",
                "provinceId": 1
            },
            {
                "name": "خاروانا",
                "id": 18,
                "latitude": "38.6851329",
                "longitude": "46.1697582",
                "english_name": "Kharvana",
                "provinceId": 1
            },
            {
                "name": "خامنه",
                "id": 19,
                "latitude": "38.1934507",
                "longitude": "45.6298023",
                "english_name": "Khamaneh",
                "provinceId": 1
            },
            {
                "name": "خراجو",
                "id": 20,
                "latitude": "37.3127515",
                "longitude": "46.5310312",
                "english_name": "Khodaju",
                "provinceId": 1
            },
            {
                "name": "خسروشهر",
                "id": 21,
                "latitude": "37.9162874",
                "longitude": "46.1239485",
                "english_name": "Khosroshah",
                "provinceId": 1
            },
            {
                "name": "خضرلو",
                "id": 22,
                "latitude": "37.4294876",
                "longitude": "45.9579756",
                "english_name": "Khezerloo",
                "provinceId": 1
            },
            {
                "name": "خمارلو",
                "id": 23,
                "latitude": "39.1584011",
                "longitude": "47.0326209",
                "english_name": "Khumarlu",
                "provinceId": 1
            },
            {
                "name": "خواجه",
                "id": 24,
                "latitude": "38.1529122",
                "longitude": "46.5827856",
                "english_name": "Khajeh",
                "provinceId": 1
            },
            {
                "name": "دوزدوزان",
                "id": 25,
                "latitude": "37.948976",
                "longitude": "47.119787",
                "english_name": "Duzduzan",
                "provinceId": 1
            },
            {
                "name": "زرنق",
                "id": 26,
                "latitude": "37.3351718",
                "longitude": "47.6724879",
                "english_name": "Zarnaq",
                "provinceId": 1
            },
            {
                "name": "زنوز",
                "id": 27,
                "latitude": "38.5880287",
                "longitude": "45.8319818",
                "english_name": "Zonuz",
                "provinceId": 1
            },
            {
                "name": "سراب",
                "id": 28,
                "latitude": "36.3175267",
                "longitude": "47.5648337",
                "english_name": "Sarab",
                "provinceId": 1
            },
            {
                "name": "سردرود",
                "id": 29,
                "latitude": "36.6154538",
                "longitude": "50.0497857",
                "english_name": "Sard Rud",
                "provinceId": 1
            },
            {
                "name": "سهند",
                "id": 30,
                "latitude": "26.545081",
                "longitude": "53.9985388",
                "english_name": "Sahand",
                "provinceId": 1
            },
            {
                "name": "سیس",
                "id": 31,
                "latitude": "38.1997037",
                "longitude": "45.8124325",
                "english_name": "Sis",
                "provinceId": 1
            },
            {
                "name": "سیه رود",
                "id": 32,
                "latitude": "38.8693808",
                "longitude": "46.0023332",
                "english_name": "Siyahrud",
                "provinceId": 1
            },
            {
                "name": "شبستر",
                "id": 33,
                "latitude": "38.1783704",
                "longitude": "45.7002363",
                "english_name": "Shabistar",
                "provinceId": 1
            },
            {
                "name": "شربیان",
                "id": 34,
                "latitude": "37.881101",
                "longitude": "47.1008161",
                "english_name": "Sharabiyan",
                "provinceId": 1
            },
            {
                "name": "شرفخانه",
                "id": 35,
                "latitude": "38.1786897",
                "longitude": "45.4892529",
                "english_name": "Sharafkhaneh",
                "provinceId": 1
            },
            {
                "name": "شندآباد",
                "id": 36,
                "latitude": "38.1623547",
                "longitude": "45.6717498",
                "english_name": "Shendabad",
                "provinceId": 1
            },
            {
                "name": "صوفیان",
                "id": 37,
                "latitude": "38.27694",
                "longitude": "45.981373",
                "english_name": "Sufian",
                "provinceId": 1
            },
            {
                "name": "عجب شیر",
                "id": 38,
                "latitude": "37.4908406",
                "longitude": "45.88682372325094",
                "english_name": "Ajabshir",
                "provinceId": 1
            },
            {
                "name": "قره آغاج",
                "id": 39,
                "latitude": "37.7632122",
                "longitude": "44.8274421",
                "english_name": "Qareh Aghaj",
                "provinceId": 1
            },
            {
                "name": "کشکسرای",
                "id": 40,
                "latitude": "38.458553",
                "longitude": "45.5673225",
                "english_name": "Koshksaray",
                "provinceId": 1
            },
            {
                "name": "کلوانق",
                "id": 41,
                "latitude": "38.1035391",
                "longitude": "46.9922274",
                "english_name": "Kalvanaq",
                "provinceId": 1
            },
            {
                "name": "کلیبر",
                "id": 42,
                "latitude": "38.8629817",
                "longitude": "47.0399693",
                "english_name": "Kaleybar",
                "provinceId": 1
            },
            {
                "name": "کوزه کنان",
                "id": 43,
                "latitude": "38.1865623",
                "longitude": "45.5751442",
                "english_name": "Kuzekonan",
                "provinceId": 1
            },
            {
                "name": "گوگان",
                "id": 44,
                "latitude": "37.7818413",
                "longitude": "45.9038288",
                "english_name": "Gugan",
                "provinceId": 1
            },
            {
                "name": "لیلان",
                "id": 45,
                "latitude": "37.0111324",
                "longitude": "46.2059139",
                "english_name": "Leylan",
                "provinceId": 1
            },
            {
                "name": "مراغه",
                "id": 46,
                "latitude": "37.378812499999995",
                "longitude": "46.250922101253664",
                "english_name": "Maragheh",
                "provinceId": 1
            },
            {
                "name": "مرند",
                "id": 47,
                "latitude": "38.4306358",
                "longitude": "45.7741",
                "english_name": "Marand",
                "provinceId": 1
            },
            {
                "name": "ملکان",
                "id": 48,
                "latitude": "32.88852155",
                "longitude": "52.69499845",
                "english_name": "ملکان",
                "provinceId": 1
            },
            {
                "name": "ملک کیان",
                "id": 49,
                "latitude": "38.04473115",
                "longitude": "46.50777968845449",
                "english_name": "ملک کیان",
                "provinceId": 1
            },
            {
                "name": "ممقان",
                "id": 50,
                "latitude": "37.8443261",
                "longitude": "45.9729822",
                "english_name": "Mamqan",
                "provinceId": 1
            },
            {
                "name": "مهربان",
                "id": 51,
                "latitude": "38.0806733",
                "longitude": "47.1317722",
                "english_name": "Mehraban",
                "provinceId": 1
            },
            {
                "name": "میانه",
                "id": 52,
                "latitude": "37.4284148",
                "longitude": "47.7058119",
                "english_name": "Mianeh",
                "provinceId": 1
            },
            {
                "name": "نظرکهریزی",
                "id": 53,
                "latitude": "37.34697",
                "longitude": "46.7629592",
                "english_name": "Nazarkahrizi",
                "provinceId": 1
            },
            {
                "name": "هادی شهر",
                "id": 54,
                "latitude": "36.6400809",
                "longitude": "52.6315535",
                "english_name": "Hadishahr",
                "provinceId": 1
            },
            {
                "name": "هرگلان",
                "id": 55,
                "latitude": "37.64031885",
                "longitude": "46.22278133036872",
                "english_name": "Hargalan",
                "provinceId": 1
            },
            {
                "name": "هریس",
                "id": 56,
                "latitude": "29.8119769",
                "longitude": "-95.3741247",
                "english_name": "Harris County",
                "provinceId": 1
            },
            {
                "name": "هشترود",
                "id": 57,
                "latitude": "37.4759767",
                "longitude": "47.0498103",
                "english_name": "Hashtrud",
                "provinceId": 1
            },
            {
                "name": "هوراند",
                "id": 58,
                "latitude": "38.8604709",
                "longitude": "47.3683131",
                "english_name": "Hurand",
                "provinceId": 1
            },
            {
                "name": "وایقان",
                "id": 59,
                "latitude": "38.1304823",
                "longitude": "45.7129464",
                "english_name": "Vayqan",
                "provinceId": 1
            },
            {
                "name": "ورزقان",
                "id": 60,
                "latitude": "38.5087607",
                "longitude": "46.6487801",
                "english_name": "Varziqan",
                "provinceId": 1
            },
            {
                "name": "یامچی",
                "id": 61,
                "latitude": "38.5223144",
                "longitude": "45.6404499",
                "english_name": "Yamchi",
                "provinceId": 1
            }
        ],
        "latitude": "37.9160365",
        "longitude": "46.6781589",
        "english_name": "East Azerbaijan"
    },
    {
        "id": 2,
        "name": "آذربایجان غربی",
        "cities": [
            {
                "name": "ارومیه",
                "id": 62,
                "latitude": "37.548341",
                "longitude": "45.0667111",
                "english_name": "Urmia",
                "provinceId": 2
            },
            {
                "name": "اشنویه",
                "id": 63,
                "latitude": "37.0418235",
                "longitude": "45.0983499",
                "english_name": "Oshnaviyeh",
                "provinceId": 2
            },
            {
                "name": "ایواوغلی",
                "id": 64,
                "latitude": "38.7139034",
                "longitude": "45.206595",
                "english_name": "Ivughli",
                "provinceId": 2
            },
            {
                "name": "آواجیق",
                "id": 65,
                "latitude": "39.3301839",
                "longitude": "44.1538901",
                "english_name": "Avajiq",
                "provinceId": 2
            },
            {
                "name": "باروق",
                "id": 66,
                "latitude": "36.9546339",
                "longitude": "46.3247366",
                "english_name": "Baruq ",
                "provinceId": 2
            },
            {
                "name": "بازرگان",
                "id": 67,
                "latitude": "39.3886668",
                "longitude": "44.3876859",
                "english_name": "Bazargan",
                "provinceId": 2
            },
            {
                "name": "بوکان",
                "id": 68,
                "latitude": "36.5215096",
                "longitude": "46.2111837",
                "english_name": "Bukan",
                "provinceId": 2
            },
            {
                "name": "پلدشت",
                "id": 69,
                "latitude": "39.3402705",
                "longitude": "45.07061225913259",
                "english_name": "Poldasht",
                "provinceId": 2
            },
            {
                "name": "پیرانشهر",
                "id": 70,
                "latitude": "36.6994559",
                "longitude": "45.140337",
                "english_name": "Piranshahr",
                "provinceId": 2
            },
            {
                "name": "تازه شهر",
                "id": 71,
                "latitude": "38.1751182",
                "longitude": "44.6915009",
                "english_name": "Tazeh Shahr",
                "provinceId": 2
            },
            {
                "name": "تکاب",
                "id": 72,
                "latitude": "36.4007658",
                "longitude": "47.1117125",
                "english_name": "Tikab",
                "provinceId": 2
            },
            {
                "name": "چهاربرج",
                "id": 73,
                "latitude": "29.5728068",
                "longitude": "51.3561085",
                "english_name": "Chaharborj",
                "provinceId": 2
            },
            {
                "name": "خوی",
                "id": 74,
                "latitude": "38.5504343",
                "longitude": "44.95354",
                "english_name": "Khoy",
                "provinceId": 2
            },
            {
                "name": "دیزج دیز",
                "id": 75,
                "latitude": "38.4614758",
                "longitude": "45.0252181",
                "english_name": "Dizaj Diz",
                "provinceId": 2
            },
            {
                "name": "ربط",
                "id": 76,
                "latitude": "35.8818906",
                "longitude": "14.3988213",
                "english_name": "Rabat",
                "provinceId": 2
            },
            {
                "name": "سردشت",
                "id": 77,
                "latitude": "36.1553184",
                "longitude": "45.4799637",
                "english_name": "Sardasht",
                "provinceId": 2
            },
            {
                "name": "سرو",
                "id": 78,
                "latitude": "32.878006",
                "longitude": "59.9777334",
                "english_name": "Serow",
                "provinceId": 2
            },
            {
                "name": "سلماس",
                "id": 79,
                "latitude": "38.2026927",
                "longitude": "44.76768597555627",
                "english_name": "Salmas",
                "provinceId": 2
            },
            {
                "name": "سیلوانه",
                "id": 80,
                "latitude": "37.387855900000005",
                "longitude": "44.79870604289104",
                "english_name": "Silvaneh",
                "provinceId": 2
            },
            {
                "name": "سیمینه",
                "id": 81,
                "latitude": "36.7303445",
                "longitude": "46.1534194",
                "english_name": "Simineh",
                "provinceId": 2
            },
            {
                "name": "سیه چشمه",
                "id": 82,
                "latitude": "39.0651269",
                "longitude": "44.3844026",
                "english_name": "Chaldran",
                "provinceId": 2
            },
            {
                "name": "شاهین دژ",
                "id": 83,
                "latitude": "36.6784386",
                "longitude": "46.5656627",
                "english_name": "Shahin Dezh",
                "provinceId": 2
            },
            {
                "name": "شوط",
                "id": 84,
                "latitude": "39.2178874",
                "longitude": "44.7711898",
                "english_name": "Showt",
                "provinceId": 2
            },
            {
                "name": "فیرورق",
                "id": 85,
                "latitude": "38.5821035",
                "longitude": "44.8316495",
                "english_name": "Firuraq",
                "provinceId": 2
            },
            {
                "name": "قره ضیاءالدین",
                "id": 86,
                "latitude": "38.891166",
                "longitude": "45.0282107",
                "english_name": "Qaraziadin",
                "provinceId": 2
            },
            {
                "name": "قطور",
                "id": 87,
                "latitude": "38.4714718",
                "longitude": "44.4099457",
                "english_name": "Qotur",
                "provinceId": 2
            },
            {
                "name": "قوشچی",
                "id": 88,
                "latitude": "37.9929508",
                "longitude": "45.0370956",
                "english_name": "Qushchi",
                "provinceId": 2
            },
            {
                "name": "کشاورز",
                "id": 89,
                "latitude": "36.8355495",
                "longitude": "46.3573777",
                "english_name": "Keshavarz",
                "provinceId": 2
            },
            {
                "name": "گردکشانه",
                "id": 90,
                "latitude": "36.8084866",
                "longitude": "45.264528",
                "english_name": "Gherdakshaneh",
                "provinceId": 2
            },
            {
                "name": "ماکو",
                "id": 91,
                "latitude": "39.2909641",
                "longitude": "44.4521379",
                "english_name": "Maku",
                "provinceId": 2
            },
            {
                "name": "محمدیار",
                "id": 92,
                "latitude": "36.9841837",
                "longitude": "45.5167584",
                "english_name": "Mohammadyar",
                "provinceId": 2
            },
            {
                "name": "محمودآباد",
                "id": 93,
                "latitude": "36.6308963",
                "longitude": "52.2621156",
                "english_name": "Mahmoudabad",
                "provinceId": 2
            },
            {
                "name": "مهاباد",
                "id": 94,
                "latitude": "36.7651739",
                "longitude": "45.7218136",
                "english_name": "Mahabad",
                "provinceId": 2
            },
            {
                "name": "میاندوآب",
                "id": 95,
                "latitude": "36.9695588",
                "longitude": "46.0993809",
                "english_name": "Miandoab",
                "provinceId": 2
            },
            {
                "name": "میرآباد",
                "id": 96,
                "latitude": "33.5156063",
                "longitude": "48.4458248",
                "english_name": "Mirabad",
                "provinceId": 2
            },
            {
                "name": "نالوس",
                "id": 97,
                "latitude": "36.9835017",
                "longitude": "45.1431549",
                "english_name": "Nalus",
                "provinceId": 2
            },
            {
                "name": "نقده",
                "id": 98,
                "latitude": "36.9555967",
                "longitude": "45.3878933",
                "english_name": "Naghadeh",
                "provinceId": 2
            },
            {
                "name": "نوشین",
                "id": 99,
                "latitude": "35.8660554",
                "longitude": "50.9044138",
                "english_name": "اسفند",
                "provinceId": 2
            }
        ],
        "latitude": "37.7416484",
        "longitude": "45.0207638",
        "english_name": "West Azerbaijan"
    },
    {
        "id": 3,
        "name": "اردبیل",
        "cities": [
            {
                "name": "اردبیل",
                "id": 100,
                "latitude": "38.4583983",
                "longitude": "47.9313001",
                "english_name": "Ardabil",
                "provinceId": 3
            },
            {
                "name": "اصلاندوز",
                "id": 101,
                "latitude": "39.4417175",
                "longitude": "47.4102145",
                "english_name": "Aslan Duz",
                "provinceId": 3
            },
            {
                "name": "آبی بیگلو",
                "id": 102,
                "latitude": "38.28365",
                "longitude": "48.5527012",
                "english_name": "Abibiglou",
                "provinceId": 3
            },
            {
                "name": "بیله سوار",
                "id": 103,
                "latitude": "39.3779114",
                "longitude": "48.3499706",
                "english_name": "Bilasuvar",
                "provinceId": 3
            },
            {
                "name": "پارس آباد",
                "id": 104,
                "latitude": "37.7983572",
                "longitude": "48.2803191",
                "english_name": "Parsabad",
                "provinceId": 3
            },
            {
                "name": "تازه کند",
                "id": 105,
                "latitude": "38.0604548",
                "longitude": "46.9313338",
                "english_name": "Tazeh Kand",
                "provinceId": 3
            },
            {
                "name": "تازه کندانگوت",
                "id": 106,
                "latitude": "39.045299",
                "longitude": "47.7448756",
                "english_name": "Tazeh Kand-e Angut",
                "provinceId": 3
            },
            {
                "name": "جعفرآباد",
                "id": 107,
                "latitude": "33.9324267",
                "longitude": "47.6657108",
                "english_name": "Jafarabad",
                "provinceId": 3
            },
            {
                "name": "خلخال",
                "id": 108,
                "latitude": "37.6192217",
                "longitude": "48.5278144",
                "english_name": "KhalKhal",
                "provinceId": 3
            },
            {
                "name": "رضی",
                "id": 109,
                "latitude": "38.6296398",
                "longitude": "48.0956519",
                "english_name": "Razey",
                "provinceId": 3
            },
            {
                "name": "سرعین",
                "id": 110,
                "latitude": "38.1493746",
                "longitude": "48.0746208",
                "english_name": "Sareyn",
                "provinceId": 3
            },
            {
                "name": "عنبران",
                "id": 111,
                "latitude": "38.4900003",
                "longitude": "48.4355097",
                "english_name": "Anbaran",
                "provinceId": 3
            },
            {
                "name": "فخرآباد",
                "id": 112,
                "latitude": "29.4696363",
                "longitude": "55.605075",
                "english_name": "Fakhrabad",
                "provinceId": 3
            },
            {
                "name": "کلور",
                "id": 113,
                "latitude": "37.3889125",
                "longitude": "48.7221802",
                "english_name": "Kolur",
                "provinceId": 3
            },
            {
                "name": "کوراییم",
                "id": 114,
                "latitude": "37.9552413",
                "longitude": "48.2355776",
                "english_name": "Kuraiem",
                "provinceId": 3
            },
            {
                "name": "گرمی",
                "id": 115,
                "latitude": "39.029223",
                "longitude": "48.0800478",
                "english_name": "Germi",
                "provinceId": 3
            },
            {
                "name": "گیوی",
                "id": 116,
                "latitude": "37.6846951",
                "longitude": "48.3396197",
                "english_name": "Givi",
                "provinceId": 3
            },
            {
                "name": "لاهرود",
                "id": 117,
                "latitude": "38.5081222",
                "longitude": "47.8316745",
                "english_name": "Lahrud",
                "provinceId": 3
            },
            {
                "name": "مشگین شهر",
                "id": 118,
                "latitude": "38.3979293",
                "longitude": "47.6764836",
                "english_name": "Meshginshahr",
                "provinceId": 3
            },
            {
                "name": "نمین",
                "id": 119,
                "latitude": "38.4240161",
                "longitude": "48.4840477",
                "english_name": "Namin",
                "provinceId": 3
            },
            {
                "name": "نیر",
                "id": 120,
                "latitude": "31.4845702",
                "longitude": "54.1259966",
                "english_name": "Nir",
                "provinceId": 3
            },
            {
                "name": "هشتجین",
                "id": 121,
                "latitude": "37.369503",
                "longitude": "48.322197",
                "english_name": "Hashjin",
                "provinceId": 3
            },
            {
                "name": "هیر",
                "id": 122,
                "latitude": "38.0801837",
                "longitude": "48.5065169",
                "english_name": "Hir",
                "provinceId": 3
            }
        ],
        "latitude": "38.4583983",
        "longitude": "47.9313001",
        "english_name": "Ardabil"
    },
    {
        "id": 4,
        "name": "اصفهان",
        "cities": [
            {
                "name": "ابریشم",
                "id": 123,
                "latitude": "32.5697615",
                "longitude": "51.5712769",
                "english_name": "Abrisham",
                "provinceId": 4
            },
            {
                "name": "ابوزیدآباد",
                "id": 124,
                "latitude": "33.9230699",
                "longitude": "51.6876684",
                "english_name": "Abuzeydabad",
                "provinceId": 4
            },
            {
                "name": "اردستان",
                "id": 125,
                "latitude": "33.3797762",
                "longitude": "52.3724967",
                "english_name": "Ardestan",
                "provinceId": 4
            },
            {
                "name": "اژیه",
                "id": 126,
                "latitude": "32.4400685",
                "longitude": "52.3789114",
                "english_name": "Ezhieh",
                "provinceId": 4
            },
            {
                "name": "اصفهان",
                "id": 127,
                "latitude": "32.6707877",
                "longitude": "51.6650002",
                "english_name": "Isfahan",
                "provinceId": 4
            },
            {
                "name": "افوس",
                "id": 128,
                "latitude": "33.0240732",
                "longitude": "50.0929526",
                "english_name": "Afus",
                "provinceId": 4
            },
            {
                "name": "انارک",
                "id": 129,
                "latitude": "33.3104146",
                "longitude": "53.6981497",
                "english_name": "Anarak",
                "provinceId": 4
            },
            {
                "name": "ایمانشهر",
                "id": 130,
                "latitude": "32.4881597",
                "longitude": "51.4469528",
                "english_name": "Iman Shahr",
                "provinceId": 4
            },
            {
                "name": "آران وبیدگل",
                "id": 131,
                "latitude": "34.0546135",
                "longitude": "51.47856839538319",
                "english_name": "Aran va Bidgol",
                "provinceId": 4
            },
            {
                "name": "بادرود",
                "id": 132,
                "latitude": "33.6916541",
                "longitude": "52.0076895",
                "english_name": "Badroud",
                "provinceId": 4
            },
            {
                "name": "باغ بهادران",
                "id": 133,
                "latitude": "32.3762181",
                "longitude": "51.1890059",
                "english_name": "Baq Bahadoran",
                "provinceId": 4
            },
            {
                "name": "بافران",
                "id": 134,
                "latitude": "32.8444997",
                "longitude": "53.1311698",
                "english_name": "Bafran",
                "provinceId": 4
            },
            {
                "name": "برزک",
                "id": 135,
                "latitude": "33.7828104",
                "longitude": "51.2252965",
                "english_name": "Barzok",
                "provinceId": 4
            },
            {
                "name": "برف انبار",
                "id": 136,
                "latitude": "33.0022943",
                "longitude": "50.1956911",
                "english_name": "Barf Anbar",
                "provinceId": 4
            },
            {
                "name": "بهاران شهر",
                "id": 137,
                "latitude": "32.515486",
                "longitude": "51.5417638",
                "english_name": "Baharanshahr",
                "provinceId": 4
            },
            {
                "name": "بهارستان",
                "id": 138,
                "latitude": "32.4858819",
                "longitude": "51.7785054",
                "english_name": "Baharestan",
                "provinceId": 4
            },
            {
                "name": "بوئین و میاندشت",
                "id": 139,
                "latitude": "33.0805194",
                "longitude": "50.1598427",
                "english_name": "Buin and Miandasht",
                "provinceId": 4
            },
            {
                "name": "پیربکران",
                "id": 140,
                "latitude": "32.468331",
                "longitude": "51.5595521",
                "english_name": "Pir Bakran",
                "provinceId": 4
            },
            {
                "name": "تودشک",
                "id": 141,
                "latitude": "32.7198701",
                "longitude": "52.6707972",
                "english_name": "Toodeshk",
                "provinceId": 4
            },
            {
                "name": "تیران",
                "id": 142,
                "latitude": "33.1844873",
                "longitude": "49.7842949",
                "english_name": "Tiran",
                "provinceId": 4
            },
            {
                "name": "جندق",
                "id": 143,
                "latitude": "34.0422837",
                "longitude": "54.4150165",
                "english_name": "Jandaq",
                "provinceId": 4
            },
            {
                "name": "جوزدان",
                "id": 144,
                "latitude": "32.5566297",
                "longitude": "51.3714526",
                "english_name": "Joozdan",
                "provinceId": 4
            },
            {
                "name": "جوشقان و کامو",
                "id": 145,
                "latitude": "33.6350305",
                "longitude": "51.2613626",
                "english_name": "Jowsheqan va Kamu",
                "provinceId": 4
            },
            {
                "name": "چادگان",
                "id": 146,
                "latitude": "32.7679417",
                "longitude": "50.6290648",
                "english_name": "Chadegan",
                "provinceId": 4
            },
            {
                "name": "چرمهین",
                "id": 147,
                "latitude": "32.3333972",
                "longitude": "51.1898097",
                "english_name": "Chermahin",
                "provinceId": 4
            },
            {
                "name": "چمگردان",
                "id": 148,
                "latitude": "32.393093",
                "longitude": "51.338919",
                "english_name": "Chamgordan",
                "provinceId": 4
            },
            {
                "name": "حبیب آباد",
                "id": 149,
                "latitude": "32.8276538",
                "longitude": "51.7757315",
                "english_name": "Habibabad",
                "provinceId": 4
            },
            {
                "name": "حسن آباد",
                "id": 150,
                "latitude": "33.3782113",
                "longitude": "50.0589311",
                "english_name": "Hasan Abad",
                "provinceId": 4
            },
            {
                "name": "حنا",
                "id": 151,
                "latitude": "31.1971774",
                "longitude": "51.7245141",
                "english_name": "Hanna",
                "provinceId": 4
            },
            {
                "name": "خالدآباد",
                "id": 152,
                "latitude": "33.6998125",
                "longitude": "51.9883183",
                "english_name": "Khaledabad",
                "provinceId": 4
            },
            {
                "name": "خمینی شهر",
                "id": 153,
                "latitude": "32.6938201",
                "longitude": "51.5254892",
                "english_name": "Khomeyni Shahr",
                "provinceId": 4
            },
            {
                "name": "خوانسار",
                "id": 154,
                "latitude": "33.22692",
                "longitude": "50.3146044",
                "english_name": "Khansar",
                "provinceId": 4
            },
            {
                "name": "خور",
                "id": 155,
                "latitude": "46.854747",
                "longitude": "9.5264904",
                "english_name": "Chur",
                "provinceId": 4
            },
            {
                "name": "خورزوق",
                "id": 156,
                "latitude": "32.7777528",
                "longitude": "51.648766",
                "english_name": "Khorzoq",
                "provinceId": 4
            },
            {
                "name": "داران",
                "id": 157,
                "latitude": "38.8301735",
                "longitude": "45.820683",
                "english_name": "Daran",
                "provinceId": 4
            },
            {
                "name": "دامنه",
                "id": 158,
                "latitude": "33.0178599",
                "longitude": "50.4893488",
                "english_name": "Damaneh",
                "provinceId": 4
            },
            {
                "name": "درچه",
                "id": 159,
                "latitude": "32.6122831",
                "longitude": "51.5574338",
                "english_name": "Dorcheh",
                "provinceId": 4
            },
            {
                "name": "دستگرد",
                "id": 160,
                "latitude": "32.9191552",
                "longitude": "59.294323",
                "english_name": "dastgerd village",
                "provinceId": 4
            },
            {
                "name": "دهاقان",
                "id": 161,
                "latitude": "31.9367339",
                "longitude": "51.6471146",
                "english_name": "Dehaqan",
                "provinceId": 4
            },
            {
                "name": "دهق",
                "id": 162,
                "latitude": "33.1049536",
                "longitude": "50.9629781",
                "english_name": "Dehagh",
                "provinceId": 4
            },
            {
                "name": "دولت آباد",
                "id": 163,
                "latitude": "37.064253",
                "longitude": "66.797996",
                "english_name": "Dawlatabad",
                "provinceId": 4
            },
            {
                "name": "دیزیچه",
                "id": 164,
                "latitude": "32.3829496",
                "longitude": "51.5128444",
                "english_name": "Dizicheh",
                "provinceId": 4
            },
            {
                "name": "رزوه",
                "id": 165,
                "latitude": "32.8349784",
                "longitude": "50.5673592",
                "english_name": "Rozveh",
                "provinceId": 4
            },
            {
                "name": "رضوانشهر",
                "id": 166,
                "latitude": "37.5479126",
                "longitude": "49.1395774",
                "english_name": "Rezvanshahr",
                "provinceId": 4
            },
            {
                "name": "زاینده رود",
                "id": 167,
                "latitude": "32.642818649999995",
                "longitude": "51.65440349154323",
                "english_name": "Zayandeh Rud",
                "provinceId": 4
            },
            {
                "name": "زرین شهر",
                "id": 168,
                "latitude": "32.3887062",
                "longitude": "51.3737142",
                "english_name": "Zarrinshahr",
                "provinceId": 4
            },
            {
                "name": "زواره",
                "id": 169,
                "latitude": "33.4469079",
                "longitude": "52.4948886",
                "english_name": "Zavareh",
                "provinceId": 4
            },
            {
                "name": "زیباشهر",
                "id": 170,
                "latitude": "32.3865574",
                "longitude": "51.5679359",
                "english_name": "Zibashahr",
                "provinceId": 4
            },
            {
                "name": "سده لنجان",
                "id": 171,
                "latitude": "32.3783604",
                "longitude": "51.3148844",
                "english_name": "Sedeh Lanjan",
                "provinceId": 4
            },
            {
                "name": "سفیدشهر",
                "id": 172,
                "latitude": "34.126299",
                "longitude": "51.3506189",
                "english_name": "Sefidshahr",
                "provinceId": 4
            },
            {
                "name": "سگزی",
                "id": 173,
                "latitude": "32.690556",
                "longitude": "52.125556",
                "english_name": "Segzi",
                "provinceId": 4
            },
            {
                "name": "سمیرم",
                "id": 174,
                "latitude": "31.2593872",
                "longitude": "51.5258517",
                "english_name": "Semirom",
                "provinceId": 4
            },
            {
                "name": "شاهین شهر",
                "id": 175,
                "latitude": "38.0416804",
                "longitude": "46.3967771",
                "english_name": "Shahin Shahr",
                "provinceId": 4
            },
            {
                "name": "شهرضا",
                "id": 176,
                "latitude": "32.0116032",
                "longitude": "51.8651719",
                "english_name": "Shahreza",
                "provinceId": 4
            },
            {
                "name": "طالخونچه",
                "id": 177,
                "latitude": "32.2661882",
                "longitude": "51.5639295",
                "english_name": "Talkhuncheh",
                "provinceId": 4
            },
            {
                "name": "عسگران",
                "id": 178,
                "latitude": "33.3146281",
                "longitude": "49.8343035",
                "english_name": "Asgarans",
                "provinceId": 4
            },
            {
                "name": "علویجه",
                "id": 179,
                "latitude": "33.0560985",
                "longitude": "51.0845672",
                "english_name": "Alavijeh",
                "provinceId": 4
            },
            {
                "name": "فرخی",
                "id": 180,
                "latitude": "33.8299856",
                "longitude": "59.5303836",
                "english_name": "Farrokhi",
                "provinceId": 4
            },
            {
                "name": "فریدونشهر",
                "id": 181,
                "latitude": "35.7118391",
                "longitude": "51.4205891",
                "english_name": "Fereydunshahr",
                "provinceId": 4
            },
            {
                "name": "فلاورجان",
                "id": 182,
                "latitude": "32.5576772",
                "longitude": "51.5079153",
                "english_name": "Falavarjan",
                "provinceId": 4
            },
            {
                "name": "فولادشهر",
                "id": 183,
                "latitude": "32.4834868",
                "longitude": "51.4173278",
                "english_name": "FuladShahr",
                "provinceId": 4
            },
            {
                "name": "قمصر",
                "id": 184,
                "latitude": "35.5086123",
                "longitude": "51.4024649",
                "english_name": "Qamsar",
                "provinceId": 4
            },
            {
                "name": "قهجاورستان",
                "id": 185,
                "latitude": "32.7040579",
                "longitude": "51.8330476",
                "english_name": "Qahjavarestan",
                "provinceId": 4
            },
            {
                "name": "قهدریجان",
                "id": 186,
                "latitude": "32.577126",
                "longitude": "51.4539164",
                "english_name": "Qahderijan",
                "provinceId": 4
            },
            {
                "name": "کاشان",
                "id": 187,
                "latitude": "33.9876533",
                "longitude": "51.4428856",
                "english_name": "Kashan",
                "provinceId": 4
            },
            {
                "name": "کرکوند",
                "id": 188,
                "latitude": "32.3460971",
                "longitude": "51.4473626",
                "english_name": "Karkevand",
                "provinceId": 4
            },
            {
                "name": "کلیشاد و سودرجان",
                "id": 189,
                "latitude": "32.5476802",
                "longitude": "51.5329463",
                "english_name": "Kelishad and Sudarjan",
                "provinceId": 4
            },
            {
                "name": "کمشچه",
                "id": 190,
                "latitude": "33.2300007",
                "longitude": "52.0558823",
                "english_name": "Komshecheh",
                "provinceId": 4
            },
            {
                "name": "کمه",
                "id": 191,
                "latitude": "31.0676887",
                "longitude": "51.5936835",
                "english_name": "Komeh",
                "provinceId": 4
            },
            {
                "name": "کهریزسنگ",
                "id": 192,
                "latitude": "32.62883235",
                "longitude": "51.480913042335175",
                "english_name": "Kahriz Sang",
                "provinceId": 4
            },
            {
                "name": "کوشک",
                "id": 193,
                "latitude": "33.0556981",
                "longitude": "59.3417259",
                "english_name": "Kushk",
                "provinceId": 4
            },
            {
                "name": "کوهپایه",
                "id": 194,
                "latitude": "32.7138321",
                "longitude": "52.4405045",
                "english_name": "Koohpayeh",
                "provinceId": 4
            },
            {
                "name": "گرگاب",
                "id": 195,
                "latitude": "32.8678119",
                "longitude": "51.5981358",
                "english_name": "Gorgab",
                "provinceId": 4
            },
            {
                "name": "گزبرخوار",
                "id": 196,
                "latitude": "32.807793",
                "longitude": "51.61823",
                "english_name": "Gaz-e Borkhar",
                "provinceId": 4
            },
            {
                "name": "گلپایگان",
                "id": 197,
                "latitude": "33.456488",
                "longitude": "50.2883303",
                "english_name": "Golpayegan",
                "provinceId": 4
            },
            {
                "name": "گلدشت",
                "id": 198,
                "latitude": "33.90594645",
                "longitude": "48.71611467366901",
                "english_name": "Goldasht",
                "provinceId": 4
            },
            {
                "name": "گلشهر",
                "id": 199,
                "latitude": "33.5130447",
                "longitude": "50.4754975",
                "english_name": "Golshahr",
                "provinceId": 4
            },
            {
                "name": "گوگد",
                "id": 200,
                "latitude": "33.4755802",
                "longitude": "50.3554565",
                "english_name": "Guged",
                "provinceId": 4
            },
            {
                "name": "لای بید",
                "id": 201,
                "latitude": "32.3560216",
                "longitude": "51.1401713",
                "english_name": "Laybid",
                "provinceId": 4
            },
            {
                "name": "مبارکه",
                "id": 202,
                "latitude": "31.7722052",
                "longitude": "54.2459607",
                "english_name": "Mobarakeh",
                "provinceId": 4
            },
            {
                "name": "مجلسی",
                "id": 203,
                "latitude": "32.1968552",
                "longitude": "51.5007466",
                "english_name": "Majlesi",
                "provinceId": 4
            },
            {
                "name": "محمدآباد",
                "id": 204,
                "latitude": "33.4601737",
                "longitude": "48.6490863",
                "english_name": "Mohammadabad",
                "provinceId": 4
            },
            {
                "name": "مشکات",
                "id": 205,
                "latitude": "38.076258",
                "longitude": "46.2907801",
                "english_name": "Mashkat",
                "provinceId": 4
            },
            {
                "name": "منظریه",
                "id": 206,
                "latitude": "32.8359683",
                "longitude": "59.1969939",
                "english_name": "Manzariyeh",
                "provinceId": 4
            },
            {
                "name": "مهاباد",
                "id": 207,
                "latitude": "36.7651739",
                "longitude": "45.7218136",
                "english_name": "Mahabad",
                "provinceId": 4
            },
            {
                "name": "میمه",
                "id": 208,
                "latitude": "33.4467299",
                "longitude": "51.1733569",
                "english_name": "Meymeh",
                "provinceId": 4
            },
            {
                "name": "نائین",
                "id": 209,
                "latitude": "32.8610688",
                "longitude": "53.085985",
                "english_name": "Na'in",
                "provinceId": 4
            },
            {
                "name": "نجف آباد",
                "id": 210,
                "latitude": "37.6254335",
                "longitude": "57.3602414",
                "english_name": "Najafabad",
                "provinceId": 4
            },
            {
                "name": "نصرآباد",
                "id": 211,
                "latitude": "36.6416168",
                "longitude": "59.191188",
                "english_name": "Nasrabad",
                "provinceId": 4
            },
            {
                "name": "نطنز",
                "id": 212,
                "latitude": "33.5071275",
                "longitude": "51.9135547",
                "english_name": "Natanz",
                "provinceId": 4
            },
            {
                "name": "نوش آباد",
                "id": 213,
                "latitude": "33.3330988",
                "longitude": "48.5742629",
                "english_name": "Nushabad",
                "provinceId": 4
            },
            {
                "name": "نیاسر",
                "id": 214,
                "latitude": "33.970466",
                "longitude": "51.1457545",
                "english_name": "Niasar",
                "provinceId": 4
            },
            {
                "name": "نیک آباد",
                "id": 215,
                "latitude": "32.3041598",
                "longitude": "52.2032026",
                "english_name": "Nikabad",
                "provinceId": 4
            },
            {
                "name": "هرند",
                "id": 216,
                "latitude": "32.5625906",
                "longitude": "52.4355327",
                "english_name": "Harand",
                "provinceId": 4
            },
            {
                "name": "ورزنه",
                "id": 217,
                "latitude": "32.4203632",
                "longitude": "52.6486815",
                "english_name": "Varzaneh",
                "provinceId": 4
            },
            {
                "name": "ورنامخواست",
                "id": 218,
                "latitude": "32.3589117",
                "longitude": "51.3787538",
                "english_name": "Varnamkhast",
                "provinceId": 4
            },
            {
                "name": "وزوان",
                "id": 219,
                "latitude": "33.4183839",
                "longitude": "51.1847456",
                "english_name": "Vazvan",
                "provinceId": 4
            },
            {
                "name": "ونک",
                "id": 220,
                "latitude": "34.6766817",
                "longitude": "49.5294575",
                "english_name": "Vanak",
                "provinceId": 4
            }
        ],
        "latitude": "32.6707877",
        "longitude": "51.6650002",
        "english_name": "Isfahan"
    },
    {
        "id": 5,
        "name": "ایلام",
        "cities": [
            {
                "name": "ارکواز",
                "id": 221,
                "latitude": "33.3846543",
                "longitude": "46.5973663",
                "english_name": "Arkvaz",
                "provinceId": 5
            },
            {
                "name": "ایلام",
                "id": 222,
                "latitude": "33.1545696",
                "longitude": "46.7576343",
                "english_name": "Ilam",
                "provinceId": 5
            },
            {
                "name": "ایوان",
                "id": 223,
                "latitude": "33.8282411",
                "longitude": "46.3096374",
                "english_name": "Eywan",
                "provinceId": 5
            },
            {
                "name": "آبدانان",
                "id": 224,
                "latitude": "32.9901681",
                "longitude": "47.4221887",
                "english_name": "Abdanan",
                "provinceId": 5
            },
            {
                "name": "آسمان آباد",
                "id": 225,
                "latitude": "33.8619245",
                "longitude": "46.4518435",
                "english_name": "Aseman abad",
                "provinceId": 5
            },
            {
                "name": "بدره",
                "id": 226,
                "latitude": "33.3060497",
                "longitude": "47.0385999",
                "english_name": "Badreh",
                "provinceId": 5
            },
            {
                "name": "پهله",
                "id": 227,
                "latitude": "33.0119112",
                "longitude": "46.8815641",
                "english_name": "Pahleh",
                "provinceId": 5
            },
            {
                "name": "توحید",
                "id": 228,
                "latitude": "33.728139",
                "longitude": "47.0678839",
                "english_name": "Towhid",
                "provinceId": 5
            },
            {
                "name": "چوار",
                "id": 229,
                "latitude": "33.6967187",
                "longitude": "46.2967631",
                "english_name": "Chavar",
                "provinceId": 5
            },
            {
                "name": "دره شهر",
                "id": 230,
                "latitude": "33.1385109",
                "longitude": "47.3753599",
                "english_name": "Darreh Shahr",
                "provinceId": 5
            },
            {
                "name": "دلگشا",
                "id": 231,
                "latitude": "32.7427608",
                "longitude": "52.782472547167444",
                "english_name": "Delgosha",
                "provinceId": 5
            },
            {
                "name": "دهلران",
                "id": 232,
                "latitude": "32.1714657",
                "longitude": "48.9395152",
                "english_name": "Dehloran",
                "provinceId": 5
            },
            {
                "name": "زرنه",
                "id": 233,
                "latitude": "33.928499",
                "longitude": "46.1826201",
                "english_name": "Zarneh",
                "provinceId": 5
            },
            {
                "name": "سراب باغ",
                "id": 234,
                "latitude": "32.898466",
                "longitude": "47.5728997",
                "english_name": "Sarab Bagh",
                "provinceId": 5
            },
            {
                "name": "سرابله",
                "id": 235,
                "latitude": "33.7675797",
                "longitude": "46.5654912",
                "english_name": "Sarableh",
                "provinceId": 5
            },
            {
                "name": "صالح آباد",
                "id": 236,
                "latitude": "29.3110846",
                "longitude": "56.4867213",
                "english_name": "Saleh Abad-e-Garbi",
                "provinceId": 5
            },
            {
                "name": "لومار",
                "id": 237,
                "latitude": "33.5673389",
                "longitude": "46.8146332",
                "english_name": "Lumar",
                "provinceId": 5
            },
            {
                "name": "مهران",
                "id": 238,
                "latitude": "36.2059941",
                "longitude": "50.9352561",
                "english_name": "Mehran",
                "provinceId": 5
            },
            {
                "name": "مورموری",
                "id": 239,
                "latitude": "32.7254932",
                "longitude": "47.6773754",
                "english_name": "Murmuri",
                "provinceId": 5
            },
            {
                "name": "موسیان",
                "id": 240,
                "latitude": "32.5209668",
                "longitude": "47.376702",
                "english_name": "Musian",
                "provinceId": 5
            },
            {
                "name": "میمه",
                "id": 241,
                "latitude": "33.4467299",
                "longitude": "51.1733569",
                "english_name": "Meymeh",
                "provinceId": 5
            }
        ],
        "latitude": "33.1545696",
        "longitude": "46.7576343",
        "english_name": "Ilam"
    },
    {
        "id": 6,
        "name": "بوشهر",
        "cities": [
            {
                "name": "امام حسن",
                "id": 242,
                "latitude": "34.539487",
                "longitude": "45.833509",
                "english_name": "Emam Hasan",
                "provinceId": 6
            },
            {
                "name": "انارستان",
                "id": 243,
                "latitude": "32.3893886",
                "longitude": "53.4980053",
                "english_name": "Anarestan",
                "provinceId": 6
            },
            {
                "name": "اهرم",
                "id": 244,
                "latitude": "28.8830282",
                "longitude": "51.2742019",
                "english_name": "Ahram",
                "provinceId": 6
            },
            {
                "name": "آب پخش",
                "id": 245,
                "latitude": "29.3604336",
                "longitude": "51.0713656",
                "english_name": "Ab Pakhsh ",
                "provinceId": 6
            },
            {
                "name": "آبدان",
                "id": 246,
                "latitude": "28.086050200000003",
                "longitude": "51.78362047831979",
                "english_name": "Abdan",
                "provinceId": 6
            },
            {
                "name": "برازجان",
                "id": 247,
                "latitude": "29.9230779",
                "longitude": "54.0694341",
                "english_name": "Borazjan",
                "provinceId": 6
            },
            {
                "name": "بردخون",
                "id": 248,
                "latitude": "28.0623996",
                "longitude": "51.4771795",
                "english_name": "Bordekhoon",
                "provinceId": 6
            },
            {
                "name": "بندردیر",
                "id": 249,
                "latitude": "27.838773",
                "longitude": "51.937609",
                "english_name": "Bandar-e Dayyer",
                "provinceId": 6
            },
            {
                "name": "بندردیلم",
                "id": 250,
                "latitude": "30.054",
                "longitude": "50.165",
                "english_name": "Bandar-e Deylam",
                "provinceId": 6
            },
            {
                "name": "بندرریگ",
                "id": 251,
                "latitude": "29.463964150000002",
                "longitude": "50.63840005420174",
                "english_name": "Bandar-e Rig",
                "provinceId": 6
            },
            {
                "name": "بندرکنگان",
                "id": 252,
                "latitude": "27.8353",
                "longitude": "52.0594",
                "english_name": "Bandar-e Kangan",
                "provinceId": 6
            },
            {
                "name": "بندرگناوه",
                "id": 253,
                "latitude": "29.567821",
                "longitude": "50.516853",
                "english_name": "Bandar-e Ganaveh",
                "provinceId": 6
            },
            {
                "name": "بنک",
                "id": 254,
                "latitude": "27.2589322",
                "longitude": "57.6176119",
                "english_name": "Banak",
                "provinceId": 6
            },
            {
                "name": "بوشهر",
                "id": 255,
                "latitude": "28.8936645",
                "longitude": "51.3204877",
                "english_name": "Bushehr",
                "provinceId": 6
            },
            {
                "name": "تنگ ارم",
                "id": 256,
                "latitude": "29.1544748",
                "longitude": "51.5293588",
                "english_name": "Tang-e Eram",
                "provinceId": 6
            },
            {
                "name": "جم",
                "id": 257,
                "latitude": "27.8262811",
                "longitude": "52.3263597",
                "english_name": "Jam ",
                "provinceId": 6
            },
            {
                "name": "چغادک",
                "id": 258,
                "latitude": "28.98560965",
                "longitude": "51.03739601209239",
                "english_name": "Choghadak",
                "provinceId": 6
            },
            {
                "name": "خارک",
                "id": 259,
                "latitude": "29.240594299999998",
                "longitude": "50.31172927653904",
                "english_name": "Kharg Island",
                "provinceId": 6
            },
            {
                "name": "خورموج",
                "id": 260,
                "latitude": "28.654813400000002",
                "longitude": "51.38282787109593",
                "english_name": "Khormoj",
                "provinceId": 6
            },
            {
                "name": "دالکی",
                "id": 261,
                "latitude": "29.4307486",
                "longitude": "51.2925138",
                "english_name": "Dalaki",
                "provinceId": 6
            },
            {
                "name": "دلوار",
                "id": 262,
                "latitude": "28.7628729",
                "longitude": "51.0719232",
                "english_name": "Delvar",
                "provinceId": 6
            },
            {
                "name": "ریز",
                "id": 263,
                "latitude": "28.0517466",
                "longitude": "52.0837191",
                "english_name": "Riz",
                "provinceId": 6
            },
            {
                "name": "سعدآباد",
                "id": 264,
                "latitude": "29.3848355",
                "longitude": "51.1166292",
                "english_name": "Saadabad",
                "provinceId": 6
            },
            {
                "name": "سیراف",
                "id": 265,
                "latitude": "28.9884784",
                "longitude": "50.8280139",
                "english_name": "Siraf",
                "provinceId": 6
            },
            {
                "name": "شبانکاره",
                "id": 266,
                "latitude": "29.4696831",
                "longitude": "50.9909728",
                "english_name": "Shabankareh ",
                "provinceId": 6
            },
            {
                "name": "شنبه",
                "id": 267,
                "latitude": "35.6512378",
                "longitude": "51.4531583",
                "english_name": "Shonbeh",
                "provinceId": 6
            },
            {
                "name": "عسلویه",
                "id": 268,
                "latitude": "27.4760027",
                "longitude": "52.6070411",
                "english_name": "Asalouyeh ",
                "provinceId": 6
            },
            {
                "name": "کاکی",
                "id": 269,
                "latitude": "28.3366456",
                "longitude": "51.523857",
                "english_name": "Kaki ",
                "provinceId": 6
            },
            {
                "name": "کلمه",
                "id": 270,
                "latitude": "28.9436694",
                "longitude": "51.4581903",
                "english_name": "Kalameh",
                "provinceId": 6
            },
            {
                "name": "نخل تقی",
                "id": 271,
                "latitude": "27.4980795",
                "longitude": "52.583854",
                "english_name": "Nakhl-e Taghi ",
                "provinceId": 6
            },
            {
                "name": "وحدتیه",
                "id": 272,
                "latitude": "29.48306",
                "longitude": "51.2369657",
                "english_name": "Vahdatiyeh",
                "provinceId": 6
            }
        ],
        "latitude": "28.8936645",
        "longitude": "51.3204877",
        "english_name": "Bushehr"
    },
    {
        "id": 7,
        "name": "تهران",
        "cities": [
            {
                "name": "ارجمند",
                "id": 273,
                "latitude": "35.6779754",
                "longitude": "51.4319641",
                "english_name": "Arjmand",
                "provinceId": 7
            },
            {
                "name": "اسلامشهر",
                "id": 274,
                "latitude": "35.5478513",
                "longitude": "51.2318676",
                "english_name": "Eslamshahr",
                "provinceId": 7
            },
            {
                "name": "اندیشه",
                "id": 275,
                "latitude": "33.8448411",
                "longitude": "46.2854175",
                "english_name": "Andisha",
                "provinceId": 7
            },
            {
                "name": "آبسرد",
                "id": 276,
                "latitude": "28.9744982",
                "longitude": "52.9349349",
                "english_name": "Absard",
                "provinceId": 7
            },
            {
                "name": "آبعلی",
                "id": 277,
                "latitude": "35.7620424",
                "longitude": "51.9628205",
                "english_name": "Abali",
                "provinceId": 7
            },
            {
                "name": "باغستان",
                "id": 278,
                "latitude": "37.7095339",
                "longitude": "45.0916366",
                "english_name": "Baghestan",
                "provinceId": 7
            },
            {
                "name": "باقرشهر",
                "id": 279,
                "latitude": "35.5338489",
                "longitude": "51.4053842",
                "english_name": "Baqershahr",
                "provinceId": 7
            },
            {
                "name": "بومهن",
                "id": 280,
                "latitude": "35.7285207",
                "longitude": "51.864313",
                "english_name": "Bumehen",
                "provinceId": 7
            },
            {
                "name": "پاکدشت",
                "id": 281,
                "latitude": "34.8288469",
                "longitude": "48.5414144",
                "english_name": "Pakdasht",
                "provinceId": 7
            },
            {
                "name": "پردیس",
                "id": 282,
                "latitude": "35.7411286",
                "longitude": "51.815509",
                "english_name": "Pardis",
                "provinceId": 7
            },
            {
                "name": "پیشوا",
                "id": 283,
                "latitude": "35.3086544",
                "longitude": "51.7190255",
                "english_name": "Pishva",
                "provinceId": 7
            },
            {
                "name": "تهران",
                "id": 284,
                "latitude": "35.6892523",
                "longitude": "51.3896004",
                "english_name": "Tehran",
                "provinceId": 7
            },
            {
                "name": "جوادآباد",
                "id": 285,
                "latitude": "33.9353739",
                "longitude": "47.7431595",
                "english_name": "Javadabad",
                "provinceId": 7
            },
            {
                "name": "چهاردانگه",
                "id": 286,
                "latitude": "35.5733747",
                "longitude": "51.7150162",
                "english_name": "Chahar Dangeh",
                "provinceId": 7
            },
            {
                "name": "حسن آباد",
                "id": 287,
                "latitude": "33.3782113",
                "longitude": "50.0589311",
                "english_name": "Hasan Abad",
                "provinceId": 7
            },
            {
                "name": "دماوند",
                "id": 288,
                "latitude": "35.954365",
                "longitude": "52.1103419",
                "english_name": "Damavand",
                "provinceId": 7
            },
            {
                "name": "دیزین",
                "id": 289,
                "latitude": "36.0508147",
                "longitude": "51.4155456",
                "english_name": "Dizin",
                "provinceId": 7
            },
            {
                "name": "شهر ری",
                "id": 290,
                "latitude": "35.5989911",
                "longitude": "51.4357865",
                "english_name": "Rey",
                "provinceId": 7
            },
            {
                "name": "رباط کریم",
                "id": 291,
                "latitude": "35.480576",
                "longitude": "51.0781534",
                "english_name": "Robat Karim",
                "provinceId": 7
            },
            {
                "name": "رودهن",
                "id": 292,
                "latitude": "35.734772",
                "longitude": "51.9063798",
                "english_name": "Rudehen",
                "provinceId": 7
            },
            {
                "name": "شاهدشهر",
                "id": 293,
                "latitude": "35.5735353",
                "longitude": "51.0868332",
                "english_name": "Shahedshahr",
                "provinceId": 7
            },
            {
                "name": "شریف آباد",
                "id": 294,
                "latitude": "33.4354844",
                "longitude": "49.5918967",
                "english_name": "Sharifabad",
                "provinceId": 7
            },
            {
                "name": "شمشک",
                "id": 295,
                "latitude": "36.011362",
                "longitude": "51.4909361",
                "english_name": "Shemshak",
                "provinceId": 7
            },
            {
                "name": "شهریار",
                "id": 296,
                "latitude": "31.341945",
                "longitude": "51.2233937",
                "english_name": "Shahriar",
                "provinceId": 7
            },
            {
                "name": "صالح آباد",
                "id": 297,
                "latitude": "29.3110846",
                "longitude": "56.4867213",
                "english_name": "Saleh Abad",
                "provinceId": 7
            },
            {
                "name": "صباشهر",
                "id": 298,
                "latitude": "35.5824779",
                "longitude": "51.1130446",
                "english_name": "Sabashahr",
                "provinceId": 7
            },
            {
                "name": "صفادشت",
                "id": 299,
                "latitude": "33.2738606",
                "longitude": "50.3914099",
                "english_name": "Sadfa Dasht",
                "provinceId": 7
            },
            {
                "name": "فردوسیه",
                "id": 300,
                "latitude": "30.5268218",
                "longitude": "56.0552456",
                "english_name": "Ferdosiyeh",
                "provinceId": 7
            },
            {
                "name": "فشم",
                "id": 301,
                "latitude": "35.9300601",
                "longitude": "51.5263647",
                "english_name": "Fasham",
                "provinceId": 7
            },
            {
                "name": "فیروزکوه",
                "id": 302,
                "latitude": "35.7556732",
                "longitude": "52.7730592",
                "english_name": "Firuzkuh",
                "provinceId": 7
            },
            {
                "name": "قدس",
                "id": 303,
                "latitude": "31.7788242",
                "longitude": "35.2257626",
                "english_name": "Jerusalem",
                "provinceId": 7
            },
            {
                "name": "قرچک",
                "id": 304,
                "latitude": "35.430769",
                "longitude": "51.57778497244185",
                "english_name": "Qarchak",
                "provinceId": 7
            },
            {
                "name": "کهریزک",
                "id": 305,
                "latitude": "35.517323",
                "longitude": "51.3618852",
                "english_name": "Kahrizak",
                "provinceId": 7
            },
            {
                "name": "کیلان",
                "id": 306,
                "latitude": "35.5505069",
                "longitude": "52.1684289",
                "english_name": "Kilan",
                "provinceId": 7
            },
            {
                "name": "گلستان",
                "id": 307,
                "latitude": "37.1984436",
                "longitude": "55.070672",
                "english_name": "Golestan",
                "provinceId": 7
            },
            {
                "name": "لواسان",
                "id": 308,
                "latitude": "35.8204845",
                "longitude": "51.6321444",
                "english_name": "Lavasan",
                "provinceId": 7
            },
            {
                "name": "ملارد",
                "id": 309,
                "latitude": "35.2886448",
                "longitude": "50.3465692",
                "english_name": "Malard",
                "provinceId": 7
            },
            {
                "name": "میگون",
                "id": 310,
                "latitude": "35.7058036",
                "longitude": "51.3745835",
                "english_name": "Meigoon",
                "provinceId": 7
            },
            {
                "name": "نسیم شهر",
                "id": 311,
                "latitude": "35.5683375",
                "longitude": "51.1591692",
                "english_name": "Nasimshahr",
                "provinceId": 7
            },
            {
                "name": "نصیرآباد",
                "id": 312,
                "latitude": "33.3497272",
                "longitude": "48.530817",
                "english_name": "Nasirabad",
                "provinceId": 7
            },
            {
                "name": "وحیدیه",
                "id": 313,
                "latitude": "35.6062379",
                "longitude": "51.0263766",
                "english_name": "Vahidiyyeh",
                "provinceId": 7
            },
            {
                "name": "ورامین",
                "id": 314,
                "latitude": "28.4271444",
                "longitude": "57.723789",
                "english_name": "Varamin",
                "provinceId": 7
            },
            {
                "name": "پرند",
                "id": 315,
                "latitude": "33.6415415",
                "longitude": "50.0828051",
                "english_name": "Parand",
                "provinceId": 7
            },
            {
                "name": "قیامدشت",
                "id": 316,
                "latitude": "35.5237555",
                "longitude": "51.6510033",
                "english_name": "Qiamdasht",
                "provinceId": 7
            }
        ],
        "latitude": "35.6892523",
        "longitude": "51.3896004",
        "english_name": "Tehran"
    },
    {
        "id": 8,
        "name": "چهارمحال و بختیاری",
        "cities": [
            {
                "name": "اردل",
                "id": 317,
                "latitude": "31.997682",
                "longitude": "50.6609476",
                "english_name": "Ardal",
                "provinceId": 8
            },
            {
                "name": "آلونی",
                "id": 318,
                "latitude": "31.5528467",
                "longitude": "51.0576007",
                "english_name": "Aluni",
                "provinceId": 8
            },
            {
                "name": "باباحیدر",
                "id": 319,
                "latitude": "32.3276473",
                "longitude": "50.4743756",
                "english_name": "Babaheydar",
                "provinceId": 8
            },
            {
                "name": "بروجن",
                "id": 320,
                "latitude": "31.9719093",
                "longitude": "51.291596",
                "english_name": "Borujen",
                "provinceId": 8
            },
            {
                "name": "بلداجی",
                "id": 321,
                "latitude": "31.9365711",
                "longitude": "51.0513348",
                "english_name": "Boldaji",
                "provinceId": 8
            },
            {
                "name": "بن",
                "id": 322,
                "latitude": "32.5422671",
                "longitude": "50.7453326",
                "english_name": "Ben",
                "provinceId": 8
            },
            {
                "name": "جونقان",
                "id": 323,
                "latitude": "32.1516564",
                "longitude": "50.6856466",
                "english_name": "Junqan",
                "provinceId": 8
            },
            {
                "name": "چلگرد",
                "id": 324,
                "latitude": "32.4682525",
                "longitude": "50.1222437",
                "english_name": "Chelgerd",
                "provinceId": 8
            },
            {
                "name": "سامان",
                "id": 325,
                "latitude": "35.259467",
                "longitude": "49.577919",
                "english_name": "Saman",
                "provinceId": 8
            },
            {
                "name": "سفیددشت",
                "id": 326,
                "latitude": "32.1715539",
                "longitude": "51.2055318",
                "english_name": "Sefiddasht",
                "provinceId": 8
            },
            {
                "name": "سودجان",
                "id": 327,
                "latitude": "32.5215922",
                "longitude": "50.4018883",
                "english_name": "Sodejan",
                "provinceId": 8
            },
            {
                "name": "سورشجان",
                "id": 328,
                "latitude": "32.9102457",
                "longitude": "50.1963976",
                "english_name": "Sureshjan",
                "provinceId": 8
            },
            {
                "name": "شلمزار",
                "id": 329,
                "latitude": "36.0478124",
                "longitude": "50.6575568",
                "english_name": "Shalamzar",
                "provinceId": 8
            },
            {
                "name": "شهرکرد",
                "id": 330,
                "latitude": "32.3257366",
                "longitude": "50.8497369",
                "english_name": "Shahr-e Kord",
                "provinceId": 8
            },
            {
                "name": "طاقانک",
                "id": 331,
                "latitude": "32.2224453",
                "longitude": "50.8392836",
                "english_name": "Taqanak",
                "provinceId": 8
            },
            {
                "name": "فارسان",
                "id": 332,
                "latitude": "37.2407925",
                "longitude": "55.2104398",
                "english_name": "Farsan",
                "provinceId": 8
            },
            {
                "name": "فرادنبه",
                "id": 333,
                "latitude": "32.0080417",
                "longitude": "51.2176939",
                "english_name": "Faradanbeh",
                "provinceId": 8
            },
            {
                "name": "فرخ شهر",
                "id": 334,
                "latitude": "32.2732354",
                "longitude": "50.9836849",
                "english_name": "Farrokhshahr",
                "provinceId": 8
            },
            {
                "name": "کیان",
                "id": 335,
                "latitude": "36.056781",
                "longitude": "52.2146405",
                "english_name": "Kian",
                "provinceId": 8
            },
            {
                "name": "گندمان",
                "id": 336,
                "latitude": "31.8650116",
                "longitude": "51.153733",
                "english_name": "Gandoman",
                "provinceId": 8
            },
            {
                "name": "گهرو",
                "id": 337,
                "latitude": "26.8732489",
                "longitude": "57.2137043",
                "english_name": "Gahru",
                "provinceId": 8
            },
            {
                "name": "لردگان",
                "id": 338,
                "latitude": "31.5126237",
                "longitude": "50.8303948",
                "english_name": "Lordegan",
                "provinceId": 8
            },
            {
                "name": "مال خلیفه",
                "id": 339,
                "latitude": "31.2905232",
                "longitude": "51.2604527",
                "english_name": "Malkhalifeh",
                "provinceId": 8
            },
            {
                "name": "ناغان",
                "id": 340,
                "latitude": "31.9344796",
                "longitude": "50.7276893",
                "english_name": "Naghan",
                "provinceId": 8
            },
            {
                "name": "نافچ",
                "id": 341,
                "latitude": "32.4228214",
                "longitude": "50.7896658",
                "english_name": "Nafch",
                "provinceId": 8
            },
            {
                "name": "نقنه",
                "id": 342,
                "latitude": "31.9333253",
                "longitude": "51.3258702",
                "english_name": "Naqneh",
                "provinceId": 8
            },
            {
                "name": "هفشجان",
                "id": 343,
                "latitude": "32.2255216",
                "longitude": "50.7945045",
                "english_name": "Hafshejan",
                "provinceId": 8
            }
        ],
        "latitude": "32.0163307",
        "longitude": "50.685709",
        "english_name": "Chaharmahal and Bakhtiyari"
    },
    {
        "id": 9,
        "name": "خراسان جنوبی",
        "cities": [
            {
                "name": "ارسک",
                "id": 344,
                "latitude": "33.7015379",
                "longitude": "57.3732972",
                "english_name": "Eresk",
                "provinceId": 9
            },
            {
                "name": "اسدیه",
                "id": 345,
                "latitude": "32.9157088",
                "longitude": "60.0209676",
                "english_name": "Asadiyeh",
                "provinceId": 9
            },
            {
                "name": "اسفدن",
                "id": 346,
                "latitude": "33.6478435",
                "longitude": "59.7791575",
                "english_name": "Esfeden",
                "provinceId": 9
            },
            {
                "name": "اسلامیه",
                "id": 347,
                "latitude": "36.4878076",
                "longitude": "59.5151684",
                "english_name": "Eslamiyeh",
                "provinceId": 9
            },
            {
                "name": "آرین شهر",
                "id": 348,
                "latitude": "33.3319207",
                "longitude": "59.2333976",
                "english_name": "Arianshahr",
                "provinceId": 9
            },
            {
                "name": "آیسک",
                "id": 349,
                "latitude": "33.8862967",
                "longitude": "58.3810693",
                "english_name": "Ayask",
                "provinceId": 9
            },
            {
                "name": "بشرویه",
                "id": 350,
                "latitude": "33.8662098",
                "longitude": "57.4253814",
                "english_name": "Boshruyeh",
                "provinceId": 9
            },
            {
                "name": "بیرجند",
                "id": 351,
                "latitude": "32.8633961",
                "longitude": "59.2177294",
                "english_name": "Birjand",
                "provinceId": 9
            },
            {
                "name": "حاجی آباد",
                "id": 352,
                "latitude": "33.6226584",
                "longitude": "48.5793314",
                "english_name": "Hajiabad",
                "provinceId": 9
            },
            {
                "name": "خضری دشت بیاض",
                "id": 353,
                "latitude": "34.0216542",
                "longitude": "58.8140837",
                "english_name": "Khezri Dasht Beyaz",
                "provinceId": 9
            },
            {
                "name": "خوسف",
                "id": 354,
                "latitude": "32.7796665",
                "longitude": "58.8928449",
                "english_name": "Khusf",
                "provinceId": 9
            },
            {
                "name": "زهان",
                "id": 355,
                "latitude": "33.4226757",
                "longitude": "59.8126423",
                "english_name": "Zohan",
                "provinceId": 9
            },
            {
                "name": "سرایان",
                "id": 356,
                "latitude": "33.8625217",
                "longitude": "58.5231892",
                "english_name": "Sarayan",
                "provinceId": 9
            },
            {
                "name": "سربیشه",
                "id": 357,
                "latitude": "32.573805",
                "longitude": "59.795754",
                "english_name": "Sarbisheh",
                "provinceId": 9
            },
            {
                "name": "سه قلعه",
                "id": 358,
                "latitude": "33.665653",
                "longitude": "58.3976472",
                "english_name": "Se Qaleh",
                "provinceId": 9
            },
            {
                "name": "شوسف",
                "id": 359,
                "latitude": "31.8035023",
                "longitude": "60.0099186",
                "english_name": "Shusef",
                "provinceId": 9
            },
            {
                "name": "طبس",
                "id": 360,
                "latitude": "33.5962283",
                "longitude": "56.9249087",
                "english_name": "Tabas",
                "provinceId": 9
            },
            {
                "name": "فردوس",
                "id": 361,
                "latitude": "28.6840266",
                "longitude": "57.1619443",
                "english_name": "Ferdows",
                "provinceId": 9
            },
            {
                "name": "قاین",
                "id": 362,
                "latitude": "33.7340439",
                "longitude": "59.1795177",
                "english_name": "Qaen",
                "provinceId": 9
            },
            {
                "name": "قهستان",
                "id": 363,
                "latitude": "33.1495413",
                "longitude": "59.7165809",
                "english_name": "Qohestan",
                "provinceId": 9
            },
            {
                "name": "محمدشهر",
                "id": 364,
                "latitude": "35.7527246",
                "longitude": "50.9039864",
                "english_name": "Mohammad Shahr",
                "provinceId": 9
            },
            {
                "name": "مود",
                "id": 365,
                "latitude": "32.7063592",
                "longitude": "59.5243809",
                "english_name": "Mud",
                "provinceId": 9
            },
            {
                "name": "نهبندان",
                "id": 366,
                "latitude": "31.5431543",
                "longitude": "60.0349456",
                "english_name": "Nehbandan",
                "provinceId": 9
            },
            {
                "name": "نیمبلوک",
                "id": 367,
                "latitude": "33.9122595",
                "longitude": "58.9319935",
                "english_name": "Nimbeluk",
                "provinceId": 9
            }
        ],
        "latitude": "33.129577",
        "longitude": "58.1065069",
        "english_name": "South Khorasan"
    },
    {
        "id": 10,
        "name": "خراسان رضوی",
        "cities": [
            {
                "name": "احمدآباد صولت",
                "id": 368,
                "latitude": "35.1163649",
                "longitude": "60.6897163",
                "english_name": "Ahmadabad-e Sowlat",
                "provinceId": 10
            },
            {
                "name": "انابد",
                "id": 369,
                "latitude": "35.2532264",
                "longitude": "57.8122034",
                "english_name": "Anabad",
                "provinceId": 10
            },
            {
                "name": "باجگیران",
                "id": 370,
                "latitude": "37.6219339",
                "longitude": "58.4182686",
                "english_name": "Bajgiran",
                "provinceId": 10
            },
            {
                "name": "باخرز",
                "id": 371,
                "latitude": "34.9941781",
                "longitude": "60.3148224",
                "english_name": "Bakharz",
                "provinceId": 10
            },
            {
                "name": "بار",
                "id": 372,
                "latitude": "36.4897198",
                "longitude": "58.7161898",
                "english_name": "Bar",
                "provinceId": 10
            },
            {
                "name": "بایگ",
                "id": 373,
                "latitude": "35.3756395",
                "longitude": "59.0389376",
                "english_name": "Bayg",
                "provinceId": 10
            },
            {
                "name": "بجستان",
                "id": 374,
                "latitude": "34.5163087",
                "longitude": "58.1834619",
                "english_name": "Bajestan",
                "provinceId": 10
            },
            {
                "name": "بردسکن",
                "id": 375,
                "latitude": "35.2611338",
                "longitude": "57.9685311",
                "english_name": "Bardaskan",
                "provinceId": 10
            },
            {
                "name": "بیدخت",
                "id": 376,
                "latitude": "34.3463245",
                "longitude": "58.7573243",
                "english_name": "Bidokht",
                "provinceId": 10
            },
            {
                "name": "تایباد",
                "id": 377,
                "latitude": "34.7401763",
                "longitude": "60.7755127",
                "english_name": "Taybad",
                "provinceId": 10
            },
            {
                "name": "تربت جام",
                "id": 378,
                "latitude": "35.2432546",
                "longitude": "60.626313",
                "english_name": "Torbat-e Jam town",
                "provinceId": 10
            },
            {
                "name": "تربت حیدریه",
                "id": 379,
                "latitude": "35.2740853",
                "longitude": "59.2194494",
                "english_name": "Torbat-e Heydarieh",
                "provinceId": 10
            },
            {
                "name": "جغتای",
                "id": 380,
                "latitude": "36.638031",
                "longitude": "57.0743721",
                "english_name": "Joghatay",
                "provinceId": 10
            },
            {
                "name": "جنگل",
                "id": 381,
                "latitude": "34.7033333",
                "longitude": "59.2227778",
                "english_name": "Jangal",
                "provinceId": 10
            },
            {
                "name": "چاپشلو",
                "id": 382,
                "latitude": "37.3514931",
                "longitude": "59.0774864",
                "english_name": "Chapeshlu",
                "provinceId": 10
            },
            {
                "name": "چکنه",
                "id": 383,
                "latitude": "36.8179746",
                "longitude": "58.5035404",
                "english_name": "Chekneh",
                "provinceId": 10
            },
            {
                "name": "چناران",
                "id": 384,
                "latitude": "36.6483961",
                "longitude": "59.1185005",
                "english_name": "Chenaran",
                "provinceId": 10
            },
            {
                "name": "خرو",
                "id": 385,
                "latitude": "35.5108865",
                "longitude": "58.2596341",
                "english_name": "Kharv",
                "provinceId": 10
            },
            {
                "name": "خلیل آباد",
                "id": 386,
                "latitude": "35.2545313",
                "longitude": "58.2863427",
                "english_name": "Khalil Abad",
                "provinceId": 10
            },
            {
                "name": "خواف",
                "id": 387,
                "latitude": "34.5723166",
                "longitude": "60.1440373",
                "english_name": "Khaf",
                "provinceId": 10
            },
            {
                "name": "داورزن",
                "id": 388,
                "latitude": "36.3512877",
                "longitude": "56.8762448",
                "english_name": "Davarzan",
                "provinceId": 10
            },
            {
                "name": "درگز",
                "id": 389,
                "latitude": "37.4470313",
                "longitude": "59.1064876",
                "english_name": "Dargaz",
                "provinceId": 10
            },
            {
                "name": "در رود",
                "id": 390,
                "latitude": "32.6661492",
                "longitude": "35.9994292",
                "english_name": "Darud",
                "provinceId": 10
            },